Location_ID,Location_simple,Longitude,Latitude,Coordinates_uncertain,Harbour,Sea,River,River_navigability,Road,Topographic_features,Modern_country,Late_Hellenistic_Area_Provincia,Early_Imperial_Province,Middle_Imperial_Province,Early_Byzantine_region,Comment_Remarks,BA_map_reference,BA_Rank,BA_rank_uncertain,Pleiades_URL
1,aazaz,37.004606,36.519218,0,0,not_available,not_available,not_available,not_available,not_available,Syria,Syria,Syria,not_available,not_available,none,not_available,4,0,not_available
2,abdera,24.97304722,40.93365,0,1,Thracium/Macedonicum_Mare,not_available,not_available,not_available,not_available,Greece,not_available,Thracia,Thracia_Rhodope,not_available,none,51_D3,4,0,https://pleiades.stoa.org/places/501323
3,abu_jiffa,0,0,1,0,not_available,not_available,not_available,not_available,Mountainous,Israel,not_available,Arabia,not_available,Palaistine_III,none,not_available,0,1,not_available
6,adulis,39.66384,15.24451,0,1,Red_Sea,not_available,not_available,not_available,not_available,Eritrea,Barbaricum,Barbaricum,Barbaricum,Barbaricum,"Study of the coastal change since Antiquity suggests the site was located c. 3.5 kilometres from the sea at the time. Adulis is in fact the only site in the publication which was more or less surveyed properly. The island is probably to be equated with Orien_, which is mentioned in the Periplus of the Erythrean Sea. It is suggested it became the port for Adulis after Diodoros Island went out of use after the early first century AD, located 24 km. NE from Adulis. The island is mentioned in the Periplus of the Erythrean Sea, yet its harbour is likely to have silted or otherwise went out of use after the early first century AD, whereafter Orien_ became the port for Adulis, located some 5 kilometres SE from Adulis.",not_available,3,1,not_available
10,agioi_pandes,21.67986,38.661422,0,0,not_available,not_available,not_available,not_available,not_available,Greece,Achaia,Achaia,Achaia,Hellas,none,not_available,4,1,not_available
11,aigeira,22.377887,38.1297925,0,0,Corinthian_Gulf,not_available,not_available,not_available,Coastal_plain,Greece,Achaia,Achaia,Achaia,Hellas,none,58_C1,3,0,https://pleiades.stoa.org/places/570043
12,ain_dara,36.85249722,36.45898889,0,0,not_available,not_available,not_available,not_available,not_available,Syria,Syria,Syria,not_available,not_available,"An Iron Age tell, obviously with later occupation.",not_available,4,0,https://pleiades.stoa.org/places/658369
13,aizanoi,29.60981944,39.20104722,0,0,not_available,not_available,not_available,not_available,not_available,Turkey,Asia,Phrygia,Phrygia_I,Phrygia_Pakatiane,none,not_available,3,0,https://pleiades.stoa.org/places/609292
14,alahan,33.35195833,36.79118333,0,0,not_available,not_available,not_available,not_available,Mountainous,Turkey,not_available,Kilikia,Isauria,Isauria,Monastery.,not_available,4,1,https://pleiades.stoa.org/places/648553
15,aleppo,37.156825,36.199335,0,0,not_available,not_available,not_available,not_available,not_available,Syria,Syria,Syria,not_available,not_available,The citadel is specifically mentioned.,67_E4,3,0,https://pleiades.stoa.org/places/658409
16,alexandreia,29.90791467,31.19824567,0,1,Aegyptium_Mare,not_available,not_available,not_available,Coastal_plain,Egypt,not_available,Aegyptus,Aegyptus_Iovia,Aigyptos,none,74_B2,1,0,https://pleiades.stoa.org/places/727070
17,alexandria_troas,26.15773611,39.74867222,0,1,Aegean_Sea,not_available,not_available,not_available,not_available,Turkey,not_available,Hellespontus,Hellespontus,Hellespontos,"Pre Roman name: AntigoneiaRoman Colony: Colonia Alexandria Augusta Troadensium",56_C2,3,0,https://pleiades.stoa.org/places/550434
18,altinum,12.39076633,45.55713373,0,0,not_available,not_available,not_available,not_available,not_available,Italy,not_available,Italia_X_(Venetia_et_Histria),not_available,not_available,none,40_C1,3,0,https://pleiades.stoa.org/places/393374
19,amathous,33.14297222,34.71178056,0,1,Phoenicium_Mare,not_available,not_available,not_available,Coastal_plain,Cyprus,Cyprus,Cyprus,Cyprus,Kypros,none,72_C3,3,0,https://pleiades.stoa.org/places/707462
20,ammata,35.6187,32.23908056,0,0,not_available,not_available,not_available,not_available,not_available,Jordan,not_available,Iudaea,not_available,not_available,none,not_available,4,0,https://pleiades.stoa.org/places/678015
21,amorion,31.29860167,39.024854,0,0,not_available,not_available,not_available,not_available,not_available,Turkey,Asia,Asia,not_available,not_available,none,62_F3,3,0,https://pleiades.stoa.org/places/609302
22,amphipolis,23.84910278,40.82054722,0,0,Thracium/Macedonicum_Mare,Strymon,Navigable,Via_Egnatia,not_available,Greece,Makedonia,Makedonia,Makedonia,Makedonia_I,none,51_B3,2,0,https://pleiades.stoa.org/places/501347
23,amygdalea,21.886487,40.220413,0,0,not_available,not_available,not_available,not_available,not_available,Greece,Makedonia,Makedonia,Macedonia,Hellas,none,not_available,4,1,not_available
24,anemorion,32.804404,36.02408933,0,1,Mediterranean_Sea,not_available,not_available,not_available,Coastal_plain,Turkey,Kilikia,Kilikia,Isauria,Isauria,none,66_B4,3,0,https://pleiades.stoa.org/places/648557
25,antikythera_shipwreck,23.30814,35.8648,0,0,not_available,not_available,not_available,not_available,not_available,Greece,Achaia,Achaia,Achaia,not_available,"Since a ship may well have its destination anywhere, this should be seen as isolated from the material excavated at sites, and therefore the material identified is not 'attached' to a region.",not_available,0,1,https://pleiades.stoa.org/places/560230
26,antiocheia_ad_orontem,36.161749,36.20138,0,0,not_available,Orontes,Navigable,not_available,River_bank,Turkey,Syria,Syria,Syria_Coele,Syria_I,none,67_C4,1,0,https://pleiades.stoa.org/places/658381
27,antiocheia_ad_pisidiam,31.1894355,38.305175,0,0,not_available,not_available,not_available,not_available,not_available,Turkey,not_available,Cappadocia,not_available,not_available,none,62_F5,2,0,https://pleiades.stoa.org/places/609307
28,apamea,36.40246944,35.41738889,0,0,not_available,Orontes,Navigable,not_available,not_available,Syria,Syria,Syria,Syria_Coele,Syria_II,Destroyed in AD 115 by an earthquake.,68_B3,2,0,https://pleiades.stoa.org/places/668335
32,apollo_smintheion,26.11627025,39.53318855,0,0,Aegean_Sea,not_available,not_available,not_available,Coastal_plain,Turkey,not_available,Hellespontus,Hellespontus,Hellespontos,Sanctuary.,not_available,4,0,https://pleiades.stoa.org/places/550892
33,apollonia,21.97186944,32.90167778,0,1,Libycum_Mare,not_available,not_available,not_available,Coastal_plain,Libya,Cyrenaica,Cyrene_et_Creta,Libya_Superior,Libye_he_Ano,Harbour of Cyrene.,38_C1,3,0,https://pleiades.stoa.org/places/373732
34,argos,22.719464,37.631561,0,0,Aegean_Sea,Charadros,not_available,not_available,Coastal_plain,Greece,Achaia,Achaia,Achaia,Hellas,none,58_D2,2,0,https://pleiades.stoa.org/places/570106
35,arikamedu,79.81831,11.89876,0,1,not_available,not_available,not_available,not_available,not_available,India,Barbaricum,Barbaricum,Barbaricum,Barbaricum,none,not_available,3,1,https://pleiades.stoa.org/places/50221
36,arsameia_am_nymphaios,38.65515278,37.94465,0,0,not_available,Nymphaios,not_available,not_available,Mountainous,Turkey,Syria,Syria,Augusta_Euphratensis,Euphratesia,none,not_available,3,0,https://pleiades.stoa.org/places/658391
37,asagi-dikenli,0,0,1,0,not_available,not_available,not_available,not_available,Hilly,Turkey,not_available,not_available,not_available,not_available,A spring covered by a brick vault was found at this site.,not_available,0,1,not_available
38,asea_valley,22.25576111,37.40303611,0,0,not_available,not_available,not_available,not_available,Mountainous,Greece,Achaia,Achaia,Achaia,Hellas,none,not_available,4,1,https://pleiades.stoa.org/places/570122
39,ashkelon,34.55436111,31.66669722,0,1,Aegyptium_Mare,not_available,not_available,Via_Maris,Coastal_plain,Israel,not_available,Iudaea,Palaestina,Palaistine_I,none,70_F2,2,0,https://pleiades.stoa.org/places/687839
40,assos,26.33677778,39.49040833,0,1,Aegean_Sea,Satnioeis,not_available,not_available,Coastal_plain,Turkey,not_available,Hellespontus,Hellespontus,Hellespontos,none,56_C3,3,0,https://pleiades.stoa.org/places/550463
41,athens,23.72551566,37.97652567,0,0,Saronic_Gulf,Ilissos,Non-navigable,not_available,Coastal_plain,Greece,Achaia,Achaia,Achaia,Hellas,Destroyed or ravaged in 267 AD by the Heruli.,59_B3,1,0,https://pleiades.stoa.org/places/579885
42,athis_(neocaesareia _qasrin_dibsi-faraj),38.198554,35.976326,0,0,not_available,not_available,not_available,not_available,not_available,Syria,Syria,Syria,not_available,not_available,none,not_available,4,0,https://pleiades.stoa.org/places/668201
43,axum,38.71924,14.13203,0,0,not_available,not_available,not_available,not_available,not_available,Ethiopia,Barbaricum,Barbaricum,Barbaricum,Barbaricum,none,not_available,3,1,https://pleiades.stoa.org/places/39303
45,ayios_philon,34.37194167,35.62879444,0,1,not_available,not_available,not_available,not_available,not_available,Cyprus,Cyprus,Cyprus,Cyprus,Kypros,none,72_E1,3,0,https://pleiades.stoa.org/places/707526
46,azotos_(ashdod),34.61751944,31.7713,0,1,Aegyptium_Mare,Nahal_Lachish_(Wadi Sukreir),Navigable,Via_Maris,Coastal_plain,Israel,not_available,Iudaea,Palaestina,Palaistine_I,"Tel Mor is believed to have been the harbour of Azotos/Ashdod, and was/is located some 2 kilometres inland along the north bank of the navigable Nahal Lachish (Wadi Sukreir).",70_F2,3,0,https://pleiades.stoa.org/places/687838
49,bab,37.507515,36.368936,0,0,not_available,not_available,not_available,not_available,not_available,Syria,Syria,Syria,not_available,not_available,The citadel is specifically mentioned.,not_available,4,1,not_available
50,babylon,44.4260235,32.542956,0,0,not_available,Euphrates,Navigable,not_available,River_bank,Iraq,Barbaricum,Barbaricum,Barbaricum,Barbaricum,none,not_available,1,0,https://pleiades.stoa.org/places/893951
51,beka,0,0,1,0,not_available,not_available,not_available,not_available,not_available,Syria,Syria,Syria,not_available,not_available,none,not_available,0,1,not_available
52,berbati,22.336587,37.462155,1,0,not_available,not_available,not_available,not_available,not_available,Greece,Achaia,Achaia,Achaia,not_available,none,not_available,4,1,https://pleiades.stoa.org/places/570548
57,berenice,20.08988333,32.10930278,0,0,not_available,not_available,not_available,not_available,not_available,Libya,Cyrenaica,Cyrene_et_Creta,Libya_Superior,Libye_he_Ano,none,38_B1,3,0,https://pleiades.stoa.org/places/373757
58,berenike,35.49093333,23.94535,0,1,Red_Sea,not_available,not_available,not_available,Coastal_plain,Egypt,Barbaricum,Barbaricum,Barbaricum,Barbaricum,none,not_available,3,0,https://pleiades.stoa.org/places/785986
59,berytus,35.511241,33.8985935,0,1,Phoenicium_Mare,Magoras,not_available,not_available,Coastal_plain,Lebanon,Syria,Syria,Phoenice,Phoinike,none,69_C2,2,0,https://pleiades.stoa.org/places/678060
60,butrint,20.02166127,39.74585047,0,0,not_available,not_available,not_available,not_available,not_available,Albania,Achaia,Achaia,Achaia,not_available,none,54_B2,4,0,https://pleiades.stoa.org/places/530824
61,byblos,35.646289,34.1192635,0,1,not_available,not_available,not_available,not_available,not_available,Lebanon,Syria,Syria,not_available,not_available,none,68_A5,3,0,https://pleiades.stoa.org/places/668216
62,caesarea_maritima,34.89144722,32.50231111,0,1,Mediterranean_Sea,not_available,not_available,not_available,Coastal_plain,Israel,not_available,Iudaea,not_available,not_available,none,69_A4,3,0,https://pleiades.stoa.org/places/678401
63,carthage,10.32340778,36.84837212,0,1,Mediterranean_Sea,not_available,not_available,not_available,Coastal_plain,Tunisia,Africa_Proconsularis,Africa_Proconsularis,Tripolitana,not_available,"Founded as a colonia in 29 BC (see Ortisi 1999, p. 452).",32_F3,1,0,https://pleiades.stoa.org/places/314921
64,cn_3,22.95843056,38.37066389,0,0,not_available,not_available,not_available,not_available,not_available,Greece,Achaia,Achaia,Achaia,Hellas,none,not_available,0,1,not_available
65,constantinople,28.97547778,41.009425,0,0,not_available,not_available,not_available,not_available,River_bank,Turkey,not_available,Bithynia_et_Pontus,not_available,Europe,none,53_A2,1,0,https://pleiades.stoa.org/places/520998
66,corinth,22.880125,37.90548611,0,1,Corinthian_Gulf,not_available,not_available,not_available,Coastal_plain,Greece,Achaia,Achaia,Achaia,Hellas,"Destroyed in 146 BC, founded as a colonia in 44 BC, provincial capital",58_D2,1,0,https://pleiades.stoa.org/places/570182
67,cunur,0,0,1,0,not_available,not_available,not_available,not_available,Hilly,Turkey,not_available,not_available,not_available,not_available,"The probable remains of an Early Christian church were found on the site, as well as 'a number of press-stones'.",not_available,0,1,not_available
68,cyrene,21.85655469,32.82034855,0,0,not_available,not_available,not_available,not_available,Coastal_plain,Libya,Cyrenaica,Cyrene_et_Creta,Libya_Superior,Libye_he_Ano,none,38_C1,2,0,https://pleiades.stoa.org/places/373778
69,damaskos,36.30707778,33.51321389,0,0,not_available,not_available,not_available,not_available,not_available,Syria,Syria,Syria,not_available,not_available,none,69_D2,2,0,https://pleiades.stoa.org/places/678106
70,danakaya,36.149024,37.134719,0,0,not_available,not_available,not_available,not_available,Hilly,Turkey,not_available,Kilikia,not_available,not_available,"The remains of a Roman building are reported, as well as what may have been the base of a millstone.",not_available,4,1,not_available
71,dehes,36.62467778,36.17626111,0,0,not_available,not_available,not_available,not_available,not_available,Syria,Syria,Syria,not_available,not_available,none,not_available,4,1,https://pleiades.stoa.org/places/658454
72,deir_abu_mghar,0,0,1,0,not_available,not_available,not_available,not_available,Mountainous,Israel,not_available,Arabia,not_available,Palaistine_III,none,not_available,0,1,not_available
73,delos,25.267471,37.400439,0,0,not_available,not_available,not_available,not_available,Coastal_plain,Greece,Achaia,Achaia,Achaia,not_available,none,61_A3,4,0,https://pleiades.stoa.org/places/599587
74,delphi,22.501169,38.482289,0,0,not_available,not_available,not_available,not_available,Mountainous,Greece,Achaia,Achaia,Achaia,Hellas,none,55_D4,2,0,https://pleiades.stoa.org/places/540726
75,diakopion,0,0,1,0,not_available,not_available,not_available,not_available,not_available,Greece,Achaia,Achaia,Achaia,Hellas,none,not_available,0,1,not_available
78,didyma,27.256115,37.384829,0,0,not_available,not_available,not_available,not_available,not_available,Turkey,not_available,Asia,not_available,not_available,none,not_available,4,0,https://pleiades.stoa.org/places/599593
79,diokaesareia,33.92497778,36.58115,0,0,not_available,not_available,not_available,not_available,not_available,Turkey,Kilikia,Kilikia,Kilikia,Kilikia_II,none,66_D3,3,0,https://pleiades.stoa.org/places/648623
80,doliche,37.34519444,37.12791667,0,0,not_available,Euphrates,not_available,not_available,not_available,Turkey,Syria,Syria,not_available,not_available,"Also named DÅlÅk Baba Tepesi, and was the location of a sanctuary for Jupiter Dolichenus.",not_available,3,0,https://pleiades.stoa.org/places/658455
81,domuztepe,36.25728056,37.29056667,0,0,not_available,not_available,not_available,not_available,not_available,Turkey,not_available,Kilikia,not_available,not_available,Located on a plateau.,not_available,4,1,not_available
82,dor,34.91678333,32.61648889,0,1,not_available,not_available,not_available,not_available,not_available,Israel,not_available,Iudaea,not_available,not_available,none,69_A4,3,0,https://pleiades.stoa.org/places/678121
83,dura_europos,40.7285885,34.7491245,0,0,not_available,Euphrates,Navigable,not_available,not_available,Syria,Barbaricum,Barbaricum,Barbaricum,Barbaricum,Destroyed in AD 256?,not_available,3,0,https://pleiades.stoa.org/places/893990
84,ed-dur,55.62223,25.52207,0,0,Persian_Gulf,not_available,not_available,not_available,not_available,United_Arab_Emirates,Barbaricum,Barbaricum,Barbaricum,Barbaricum,The site is (also) known as Umm al-Qaiwain.,not_available,4,1,not_available
85,ein_najila,0,0,1,0,not_available,not_available,not_available,not_available,Mountainous,Israel,not_available,Arabia,not_available,Palaistine_III,none,not_available,0,1,not_available
87,el_aareime,36.987604,36.312852,0,0,not_available,not_available,not_available,not_available,not_available,Syria,Syria,Syria,not_available,not_available,none,not_available,4,1,not_available
88,el-haditha,35.55643333,31.29738333,0,0,Dead_Sea,not_available,not_available,not_available,not_available,Jordan,not_available,Arabia,not_available,not_available,"This ancient site lies about 3,5 km. east of the Dead Sea, above and east of Ghor el-Haditha, 200 metres below sea level on the south bank of the Wadi ibn Hammad.",not_available,4,1,https://pleiades.stoa.org/places/697669
89,emporio,26.02935,38.18620556,0,0,not_available,not_available,not_available,not_available,not_available,Greece,Asia,Asia,not_available,Asia,none,not_available,4,0,https://pleiades.stoa.org/places/550530
90,emporio-pindakas,26.02935,38.18620556,1,0,not_available,not_available,not_available,not_available,not_available,Greece,Asia,Asia,not_available,Asia,"1 kilometre from the harbour of Emporio: a farmhouse, the excavation was published in BSA 53-4, 1958-9, pp. 295-309.",not_available,0,1,not_available
487,en_boqeq,35.36388889,31.20138889,0,0,Dead_Sea,not_available,not_available,not_available,Hilly,Israel,Nabataean_Kingdom,Arabia,Arabia,Palaistine_III,"Late Roman-Early Byzantine fort located near the 'En Boqeq oasis on the north side of the Nahal Boqeq valley and on the southwest shore of the Dead Sea, as part of the limes Palestinae.",not_available,4,0,https://pleiades.stoa.org/places/687892
91,ephesos,27.34283611,37.93897778,0,1,Aegean_Sea,Kaistros,Navigable,not_available,Coastal_plain,Turkey,Asia,Asia,Asia,Asia,Provincial capital of the provincia Asia.,61_E2,2,0,https://pleiades.stoa.org/places/599612
92,epiphaneia,36.74949722,35.13610833,0,0,not_available,Orontes,Navigable,not_available,not_available,Syria,Syria,Syria,not_available,not_available,none,not_available,3,0,https://pleiades.stoa.org/places/668182
93,eretria,23.79223733,38.39742467,0,0,not_available,not_available,not_available,not_available,not_available,Greece,Achaia,Achaia,Achaia,Hellas,none,55_F4,2,0,https://pleiades.stoa.org/places/579925
94,eski_kahta,38.609313,37.932598,0,0,not_available,not_available,not_available,not_available,not_available,Turkey,Syria,Syria,not_available,not_available,none,not_available,4,1,not_available
95,et-tur,33.615033,28.240678,0,0,not_available,not_available,not_available,not_available,Mountainous,Egypt,not_available,Arabia,Arabia,Palaistine_III,none,not_available,4,0,not_available
97,gadara,35.6781455,32.655922,0,0,not_available,not_available,not_available,not_available,not_available,Jordan,not_available,Iudaea,not_available,not_available,none,69_C4,3,0,https://pleiades.stoa.org/places/678142
98,gebel_barkal,31.853738,18.565952,0,0,not_available,not_available,not_available,not_available,not_available,Sudan,Barbaricum,Barbaricum,Barbaricum,Barbaricum,none,not_available,3,1,https://pleiades.stoa.org/places/805634
99,gerasa,35.891768,32.2788645,0,0,not_available,not_available,not_available,not_available,not_available,Jordan,not_available,Arabia,not_available,not_available,none,69_C5,3,0,https://pleiades.stoa.org/places/678158
100,gindaros,36.68881111,36.38603056,0,0,not_available,not_available,not_available,not_available,not_available,Syria,Syria,Syria,not_available,not_available,none,not_available,4,0,https://pleiades.stoa.org/places/658475
101,glyfada,23.7548945,37.866334,0,0,not_available,not_available,not_available,not_available,not_available,Greece,Achaia,Achaia,Achaia,Hellas,none,not_available,3,0,https://pleiades.stoa.org/places/579855
102,gortyn,24.95023611,35.05932222,0,0,not_available,not_available,not_available,not_available,not_available,Greece,Creta,Cyrene_et_Creta,Creta,Krete,none,60_C2,2,0,https://pleiades.stoa.org/places/589796
103,gyphtokastro,23.374906,38.179685,0,0,Saronic_Gulf,not_available,not_available,not_available,Mountainous,Greece,Achaia,Achaia,Achaia,Hellas,A fortress and settlement on the border between Attica and Boiotia.,not_available,4,0,https://pleiades.stoa.org/places/540756
104,halabiyya-zenobia,39.82060278,35.68941944,0,0,not_available,not_available,not_available,not_available,not_available,Syria,not_available,Mesopotamia,not_available,not_available,Fort of the sixth century AD.,not_available,3,0,https://pleiades.stoa.org/places/894185
105,halieis,23.14260278,37.32611667,0,0,not_available,not_available,not_available,not_available,not_available,Greece,Achaia,Achaia,Achaia,Hellas,none,not_available,3,0,https://pleiades.stoa.org/places/570274
106,halikarnassos,27.423765,37.0382205,0,0,not_available,not_available,not_available,not_available,not_available,Turkey,Asia,Asia,Caria,Karia,none,61_E3,3,0,https://pleiades.stoa.org/places/599636
501,halos,22.82234597,39.14854852,0,0,Aegean_Sea,not_available,not_available,not_available,Coastal_plain,Greece,Achaia,Achaia,Achaia,not_available,none,55_D2,3,0,https://pleiades.stoa.org/places/540804
107,hammamet,0,0,1,0,not_available,not_available,not_available,not_available,not_available,Syria,Syria,Syria,not_available,not_available,none,not_available,0,1,not_available
108,hammat_gader,35.665625,32.684043,0,0,not_available,not_available,not_available,not_available,not_available,Israel,not_available,Iudaea,not_available,not_available,Bathhouse.,not_available,4,0,https://pleiades.stoa.org/places/678131
109,hammath_tiberias,35.54777778,32.76848333,0,0,Sea_of_Galilee,not_available,not_available,not_available,not_available,Israel,not_available,Iudaea,not_available,not_available,"The city of Tiberias, located nearby along the shores of the Sea of Galilee, was assigned to Syria after the death of Agrippa in AD 35.",69_C4,3,0,https://pleiades.stoa.org/places/678172
110,haouar_enn_nahr,0,0,1,0,not_available,not_available,not_available,not_available,not_available,Syria,Syria,Syria,not_available,not_available,none,not_available,0,1,not_available
111,hippos-sussita,35.6597945,32.7786705,0,0,not_available,not_available,not_available,not_available,not_available,Israel,not_available,Arabia,not_available,not_available,One of the cities of the Dekapolis.,69_C4,3,0,https://pleiades.stoa.org/places/678185
112,horvat_eleq,34.9492,32.55170278,0,0,not_available,not_available,not_available,not_available,not_available,Israel,not_available,Iudaea,not_available,not_available,none,not_available,4,0,https://pleiades.stoa.org/places/678357
113,iasos,27.585075,37.278837,0,1,Iasi(k)os_Sinus,not_available,not_available,not_available,Coastal_plain,Turkey,Achaia,Asia,Caria,Karia,none,61_F3,3,0,https://pleiades.stoa.org/places/599664
460,ilion,26.23896667,39.95766667,0,0,not_available,not_available,not_available,not_available,not_available,Turkey,Asia,Hellespontus,Hellespontus,Hellespontos,none,56_C2,3,0,https://pleiades.stoa.org/places/550595
116,isthmia,22.99286667,37.91591667,0,0,not_available,not_available,not_available,not_available,Coastal_plain,Greece,Achaia,Achaia,Achaia,Hellas,none,not_available,2,0,https://pleiades.stoa.org/places/570316
117,jalame,35.09013056,32.72269722,0,0,not_available,not_available,not_available,not_available,not_available,Israel,not_available,Iudaea,not_available,not_available,none,not_available,4,0,not_available
118,jebel_khalid,38.17474722,36.35511389,0,0,not_available,Euphrates,Navigable,not_available,not_available,Syria,Syria,Syria,not_available,not_available,none,not_available,4,0,not_available
119,jekke,0,0,1,0,not_available,not_available,not_available,not_available,not_available,Syria,Syria,Syria,not_available,not_available,none,not_available,0,1,not_available
120,jericho,35.443876,31.8700465,0,0,not_available,not_available,not_available,not_available,not_available,Israel,not_available,Iudaea,not_available,not_available,none,not_available,4,0,https://pleiades.stoa.org/places/687917
121,jerusalem,35.23474835,31.7774646,0,0,not_available,not_available,not_available,not_available,not_available,Israel,not_available,Iudaea,Palaestina,Palaistine_I,none,70_G2,1,0,https://pleiades.stoa.org/places/687928
122,kabirion,23.25512222,38.3184,0,0,not_available,not_available,not_available,not_available,Hilly,Greece,Achaia,Achaia,Achaia,Hellas,none,not_available,4,0,https://pleiades.stoa.org/places/540844
123,kallion,22.1673488,38.5489459,0,0,not_available,not_available,not_available,not_available,not_available,Greece,Achaia,Achaia,Achaia,Hellas,none,not_available,4,0,https://pleiades.stoa.org/places/540849
124,kallirhoe,35.558739,31.595743,0,0,Dead_Sea,not_available,not_available,not_available,not_available,Israel,not_available,Iudaea,not_available,not_available,"This site was apparently famous for its hot springs, which are recorded by Flavius Josephus, the site, represented by 'Byzantine' occupation, is also shown on the Madaba Map.",not_available,4,0,https://pleiades.stoa.org/places/697677
125,kallithea,22.143764,38.365846,1,0,Corinthian_Gulf,not_available,not_available,not_available,Coastal_plain,Greece,Achaia,Achaia,Achaia,Hellas,none,not_available,4,0,https://pleiades.stoa.org/places/540850
126,kallydon,21.5331825,38.372926,0,0,not_available,not_available,not_available,not_available,not_available,Greece,Achaia,Achaia,Achaia,Hellas,none,55_B4,3,0,https://pleiades.stoa.org/places/540699
127,kanatha,36.6183555,32.754205,0,0,not_available,not_available,not_available,not_available,not_available,Syria,not_available,Arabia,not_available,not_available,"Modern-day Qanawat, 'member' of the Dekapolis, joined to the provincia Arabia in the late second century AD, it was the see of a bishop in the fourth and fifth centuries AD.",69_E4,3,0,https://pleiades.stoa.org/places/678082
128,karamildan,38.537432,39.012841,1,0,not_available,not_available,not_available,not_available,not_available,Turkey,not_available,Cappadocia,not_available,not_available,none,not_available,4,1,not_available
129,karanog,32.090922,22.720104,0,0,not_available,not_available,not_available,not_available,not_available,Egypt,Barbaricum,Barbaricum,Barbaricum,Barbaricum,none,not_available,3,0,https://pleiades.stoa.org/places/795832
130,karatepe-saridoz,36.2537475,37.2958505,0,0,not_available,not_available,not_available,not_available,Hilly,Turkey,not_available,Kilikia,not_available,not_available,"The remains of two buildings were found: one church and one  probable bath-building, as well as a millstone within the village proper.",not_available,4,1,https://pleiades.stoa.org/places/869993028
131,kastro_tigani,26.749494,37.768471,0,0,not_available,not_available,not_available,not_available,not_available,Turkey,Asia,Asia,not_available,Asia,none,not_available,4,1,not_available
488,kellia,30.368868,30.776003,0,0,Aegyptium_Mare,Nile,Navigable,not_available,not_available,Egypt,not_available,Aegyptus,Aegyptus_Iovia,Aigyptos,Group of Coptic monasteries in Lower Egypt on the eastern edge of the Lybian desert situated between El Barnoudji and the Ouadi en Natrun.,not_available,4,0,https://pleiades.stoa.org/places/727141
132,kenchreai,22.99278333,37.88234167,0,0,Saronic_Gulf,not_available,not_available,not_available,Coastal_plain,Greece,Achaia,Achaia,Achaia,Hellas,Eastern harbour of Corinth,not_available,3,0,https://pleiades.stoa.org/places/570347
133,kepia,24.19931667,40.88914444,0,0,not_available,not_available,not_available,not_available,not_available,Greece,Makedonia,Makedonia,Makedonia,Makedonia_I,none,not_available,4,0,https://pleiades.stoa.org/places/501464
134,khirbet_al-karak,35.573386,32.713858,0,0,not_available,not_available,not_available,not_available,not_available,Israel,not_available,Iudaea,not_available,not_available,none,not_available,4,0,https://pleiades.stoa.org/places/678333
135,khirbet_ed-deir,35.25220556,31.52771389,0,0,Dead_Sea,not_available,not_available,not_available,Mountainous,Israel,not_available,Iudaea,not_available,not_available,none,not_available,4,0,https://pleiades.stoa.org/places/687943
136,khirbet_ez_souaine,0,0,1,0,not_available,not_available,not_available,not_available,not_available,Syria,Syria,Syria,not_available,not_available,none,not_available,0,1,not_available
137,kition,33.63045833,34.92331667,0,1,not_available,not_available,not_available,not_available,not_available,Cyprus,Cyprus,Cyprus,Cyprus,Kypros,none,72_D3,3,0,https://pleiades.stoa.org/places/707534
139,knossos,25.16361111,35.29788056,0,0,not_available,not_available,not_available,not_available,not_available,Greece,Creta,Cyrene_et_Creta,Creta,Krete,none,60_D2,2,0,https://pleiades.stoa.org/places/589872
140,kommos,24.76072778,35.01545278,0,0,not_available,not_available,not_available,not_available,not_available,Greece,Creta,Cyrene_et_Creta,Creta,Krete,none,not_available,4,0,https://pleiades.stoa.org/places/589690
141,koniakos,22.198906,38.625074,0,0,not_available,Daphnos,not_available,not_available,River_bank,Greece,Achaia,Achaia,Achaia,Hellas,none,not_available,4,0,https://pleiades.stoa.org/places/540877
142,kopetra,33.30650556,34.75309167,0,0,not_available,not_available,not_available,not_available,Coastal_plain,Cyprus,Cyprus,Cyprus,Cyprus,Kypros,none,not_available,4,0,https://pleiades.stoa.org/places/707544
143,kourion,32.883723,34.6662275,0,1,Mediterranean_Sea,not_available,not_available,not_available,Coastal_plain,Cyprus,Cyprus,Cyprus,Cyprus,Kypros,none,72_B3,3,0,https://pleiades.stoa.org/places/707549
144,kozluca,30.138833,37.520416,1,0,not_available,not_available,not_available,not_available,not_available,Turkey,not_available,Lykia_et_Pamphylia,not_available,not_available,none,not_available,4,0,https://pleiades.stoa.org/places/639083
145,kucuk_burnaz,36.15441467,36.96189233,1,0,Gulf_of_Issos,not_available,not_available,not_available,Coastal_plain,Turkey,Kilikia,Kilikia,not_available,Kilikia_II,none,67_C3,3,0,https://pleiades.stoa.org/places/658556
146,kululu,36.13967,38.974165,0,0,not_available,not_available,not_available,not_available,not_available,Turkey,not_available,Cappadocia,not_available,not_available,none,not_available,4,1,not_available
147,kydonia,24.01869,35.515775,0,0,not_available,not_available,not_available,not_available,not_available,Greece,Creta,Cyrene_et_Creta,Creta,Krete,Modern Khania on Crete.,60_B1,2,0,https://pleiades.stoa.org/places/589886
148,kythera,22.99491944,36.2216,0,0,not_available,not_available,not_available,not_available,not_available,Greece,Achaia,Achaia,Achaia,Hellas,none,not_available,4,0,https://pleiades.stoa.org/places/570400
149,labraunda,27.81988056,37.41890278,0,0,not_available,not_available,not_available,not_available,not_available,Turkey,not_available,Asia,not_available,not_available,none,not_available,4,0,https://pleiades.stoa.org/places/599745
386,laconia_survey,0,0,1,0,not_available,not_available,not_available,not_available,not_available,Greece,Achaia,Achaia,Achaia,Hellas,none,not_available,0,1,not_available
151,lepcis_magna,14.29433501,32.63672617,0,1,not_available,not_available,not_available,not_available,Coastal_plain,Libya,Africa_Proconsularis,Africa_Proconsularis,Tripolitana,not_available,none,35_G2,1,0,https://pleiades.stoa.org/places/344448
152,leukos_limen,35.77752778,35.60522778,0,0,not_available,not_available,not_available,not_available,not_available,Syria,Syria,Syria,not_available,not_available,none,not_available,4,0,https://pleiades.stoa.org/places/668295
153,lidar_hoyuk,38.600333,37.562283,0,0,not_available,not_available,not_available,not_available,not_available,Turkey,Syria,Syria,not_available,not_available,none,not_available,4,0,https://pleiades.stoa.org/places/658520
154,limassol,33.039628,34.67624,0,1,not_available,not_available,not_available,not_available,Coastal_plain,Cyprus,Cyprus,Cyprus,Cyprus,Kypros,none,not_available,4,0,https://pleiades.stoa.org/places/707587
155,magen,34.42766667,31.29945833,0,0,not_available,not_available,not_available,not_available,not_available,Israel,not_available,Iudaea,not_available,not_available,none,not_available,4,1,https://pleiades.stoa.org/places/687964
156,maladrino,22.246744,38.448897,0,0,not_available,not_available,not_available,not_available,not_available,Greece,Achaia,Achaia,Achaia,Hellas,none,not_available,4,1,https://pleiades.stoa.org/places/541057
157,malta,14.44874427,35.87373581,0,0,not_available,not_available,not_available,not_available,not_available,Malta,not_available,Sicilia,Sicilia,not_available,none,47_inset,3,0,https://pleiades.stoa.org/places/462311
158,mampsis,35.06484167,31.02523056,0,0,not_available,not_available,not_available,not_available,not_available,Israel,Nabataean_Kingdom,Arabia,Palaestina,Palaistine_III,none,not_available,3,1,https://pleiades.stoa.org/places/687963
160,marina_el-alamein,29.012034,30.823446,0,0,not_available,not_available,not_available,not_available,not_available,Egypt,not_available,Aegyptus,Libya_Inferior,Libye_he_Kato,none,not_available,3,0,https://pleiades.stoa.org/places/716524
161,maroni_petrera,33.35603333,34.75561111,0,0,not_available,not_available,not_available,not_available,not_available,Cyprus,Cyprus,Cyprus,Cyprus,Kypros,none,not_available,4,0,https://pleiades.stoa.org/places/707608
163,meroe,33.70098,16.911636,0,0,not_available,not_available,not_available,not_available,not_available,Sudan,Barbaricum,Barbaricum,Barbaricum,Barbaricum,none,not_available,3,1,https://pleiades.stoa.org/places/805630
167,methana_peninsula_survey,23.3696045,37.5839485,0,0,Saronic_Gulf,not_available,not_available,not_available,Coastal_plain,Greece,Achaia,Achaia,Achaia,Hellas,none,not_available,3,0,https://pleiades.stoa.org/places/570482
164,methymna,26.176891,39.369167,0,0,Aegean_Sea,not_available,not_available,not_available,not_available,Greece,not_available,Asia,not_available,not_available,Located on Lesbos.,56_C3,4,0,https://pleiades.stoa.org/places/550738
165,minturnae,13.768467,41.242193,0,0,not_available,not_available,not_available,not_available,not_available,Italy,not_available,Italia_I_(Latium_et_Campania),not_available,not_available,none,44_E3,2,0,https://pleiades.stoa.org/places/432940
205,mutatio_heldua,35.48389444,33.78910278,0,0,not_available,not_available,not_available,Via_Maris,not_available,Lebanon,Syria,Syria,not_available,not_available,none,not_available,4,0,https://pleiades.stoa.org/places/678177
206,muziris,76.213146,10.153976,0,0,Indian_Ocean,not_available,not_available,not_available,not_available,India,Barbaricum,Barbaricum,Barbaricum,Barbaricum,Today a village called Pattanam.,not_available,3,1,https://pleiades.stoa.org/places/50146
502,mycenae,22.75557475,37.73036675,0,0,not_available,not_available,not_available,not_available,not_available,Greece,Achaia,Achaia,Achaia,not_available,none,not_available,3,0,https://pleiades.stoa.org/places/570491
208,myos_hormos,34.24139444,26.15664167,0,1,Red_Sea,not_available,not_available,not_available,Coastal_plain,Egypt,not_available,Aegyptus,Thebais,not_available,none,not_available,4,0,https://pleiades.stoa.org/places/786069
209,myoupolis/oinoe,23.944366,38.166994,1,0,Saronic_Gulf,not_available,not_available,not_available,not_available,Greece,Achaia,Achaia,Achaia,Hellas,Classical-Hellenistic deme centre.,not_available,4,0,https://pleiades.stoa.org/places/580039
210,nabratein,35.51706111,32.99079167,0,0,Sea_of_Galilee,not_available,not_available,not_available,not_available,Israel,not_available,Iudaea,not_available,not_available,"Nabratein is located some 6 km. east of Meiron, and c. 19 km. north of the western tip of the Sea of Galilee.",not_available,4,1,https://pleiades.stoa.org/places/678232
212,nessana,34.43234722,30.87544167,0,0,not_available,not_available,not_available,not_available,not_available,Israel,Nabataean_Kingdom,Arabia,Palaestina,Palaistine_III,none,not_available,4,0,https://pleiades.stoa.org/places/687988
213,nikopolis,20.73218147,39.01310635,0,1,Ionian_Sea,not_available,not_available,not_available,not_available,Greece,Achaia,Achaia,Achaia,not_available,This apparently was the capital of of the provincia of Epirus.,54_C3,3,0,https://pleiades.stoa.org/places/531013
214,nisbine,0,0,1,0,not_available,not_available,not_available,not_available,not_available,Syria,Syria,Syria,not_available,not_available,none,not_available,0,1,not_available
150,northern_keos_survey,24.33537,37.658777,0,0,not_available,not_available,not_available,not_available,not_available,Greece,Achaia,Achaia,Achaia,not_available,none,not_available,4,1,not_available
215,notion,27.1975,37.9928,0,0,not_available,not_available,not_available,not_available,not_available,Turkey,Asia,Asia,not_available,not_available,none,61_E1,3,0,https://pleiades.stoa.org/places/599578
216,oboda,34.774147,30.794321,0,0,not_available,not_available,not_available,not_available,not_available,Israel,Nabataean_Kingdom,Arabia,Palaestina,Palaistine_III,none,not_available,3,1,https://pleiades.stoa.org/places/687887
223,olympia,21.629337,37.6381535,0,0,not_available,not_available,not_available,not_available,Mountainous,Greece,Achaia,Achaia,Achaia,Hellas,none,not_available,4,0,https://pleiades.stoa.org/places/570531
224,oropos_survey,23.84019167,38.31016111,0,0,Gulf_of_Euboia,not_available,Non-navigable,not_available,not_available,Greece,Achaia,Achaia,Achaia,not_available,none,59_C1,3,0,not_available
232,ouardiye,0,0,1,0,not_available,not_available,not_available,not_available,not_available,Syria,Syria,Syria,not_available,not_available,none,not_available,0,1,not_available
233,oumm_el-amed,35.172431,33.135819,1,0,not_available,not_available,not_available,not_available,not_available,Lebanon,Syria,Syria,not_available,not_available,none,not_available,4,0,https://pleiades.stoa.org/places/678173
327,palaipaphos_area,32.579086,34.7053255,0,1,not_available,not_available,not_available,not_available,not_available,Cyprus,Cyprus,Cyprus,Cyprus,Kypros,none,72_B3,3,0,https://pleiades.stoa.org/places/707596
328,palaityr/tell_arqa,36.04621944,34.53098889,0,0,not_available,not_available,not_available,not_available,not_available,Lebanon,Syria,Syria,not_available,not_available,none,68_B4,3,0,https://pleiades.stoa.org/places/668198
329,panayia_ematousa,33.5669,34.9628,0,0,not_available,not_available,not_available,not_available,not_available,Cyprus,Cyprus,Cyprus,Cyprus,Kypros,none,not_available,4,0,https://pleiades.stoa.org/places/707598
330,paphos,32.406593,34.757212,0,1,not_available,not_available,not_available,not_available,not_available,Cyprus,Cyprus,Cyprus,Cyprus,Kypros,none,72_A3,2,0,https://pleiades.stoa.org/places/707586
331,patras,21.73823889,38.24363611,0,1,not_available,not_available,not_available,not_available,Coastal_plain,Greece,Achaia,Achaia,Achaia,Hellas,Colonia (Augusta) Achaica Patrensis in 14 BC.,58_B1,2,0,https://pleiades.stoa.org/places/570567
332,pella,35.614625,32.449667,0,0,not_available,not_available,not_available,not_available,not_available,Jordan,not_available,Iudaea,not_available,not_available,none,69_C5,3,0,https://pleiades.stoa.org/places/678326
333,pelusium,32.5409,31.04269444,0,1,not_available,not_available,not_available,not_available,not_available,Egypt,not_available,Aegyptus,not_available,not_available,"Also known as Tell el-Farama, Balouza (the modern Arabic village, probably derived from Pelusium) and under the Coptic name of ????????.",74_H2,2,0,https://pleiades.stoa.org/places/727192
334,pergamon,27.18422554,39.13153246,0,0,not_available,Ketios,not_available,not_available,not_available,Turkey,Asia,Asia,not_available,not_available,none,56_E3,2,0,https://pleiades.stoa.org/places/550812
335,perge,30.85464444,36.96276667,0,0,not_available,not_available,not_available,not_available,Coastal_plain,Turkey,not_available,Lykia_et_Pamphylia,Lycia_et_Pamphylia,Pamphylia,none,65_E4,2,0,https://pleiades.stoa.org/places/639048
336,petra,35.441944,30.328611,0,0,not_available,not_available,not_available,not_available,Mountainous,Jordan,Nabataean_Kingdom,Arabia,Palaestina,Palaistine_III,"Under Trajan elevated to the status of metropolis in AD 114, founded as a colonia in AD 221-2 under Heliogabalus.",71_A5,2,0,https://pleiades.stoa.org/places/697725
337,phalasarna,23.57236667,35.50846389,0,0,not_available,not_available,not_available,not_available,Coastal_plain,Greece,Creta,Cyrene_et_Creta,Creta,Krete,"Northwest cape of Crete, thought to be involved in piracy during the late Hellenistic period and perhaps 'put out of business' by Metellus Creticus during his campaigns of BC 68-6.",60_A1,3,0,https://pleiades.stoa.org/places/589989
338,phaselis_shipwreck,30.549049,36.52280633,0,0,not_available,not_available,not_available,not_available,not_available,Turkey,not_available,Lykia_et_Pamphylia,not_available,Lykia,"Since a ship may well have its destination anywhere, this should be seen as isolated from the material excavated at sites, and therefore the material identified is not 'attached' to a region.",65_E4,3,0,https://pleiades.stoa.org/places/639051
339,philadelphia,35.9334454,31.94964296,0,0,not_available,not_available,not_available,not_available,not_available,Jordan,not_available,Arabia,not_available,not_available,none,71_B2,2,0,https://pleiades.stoa.org/places/697728
211,phlius,22.60848889,37.86365278,0,0,not_available,not_available,not_available,not_available,not_available,Greece,Achaia,Achaia,Achaia,not_available,P. 611: 'the site represents the highest-level political center within the study area in Graeco-Roman times'.,58_D2,3,0,not_available
342,pinar_zo,0,0,1,0,not_available,Pyramus,not_available,not_available,River_bank,Turkey,not_available,not_available,not_available,not_available,An early Christian church (dated to the sixth century AD) was located close to this modern village.,not_available,0,1,not_available
344,porphyreon,35.428727,33.663081,0,1,not_available,not_available,not_available,not_available,Coastal_plain,Lebanon,Syria,Syria,Phoenice,Phoinike,none,not_available,4,0,https://pleiades.stoa.org/places/678338
345,porsuk,34.56677778,37.53681667,0,0,not_available,not_available,not_available,not_available,Mountainous,Turkey,not_available,Cappadocia,not_available,not_available,none,not_available,4,0,https://pleiades.stoa.org/places/648802
347,priene,27.29756608,37.65972465,0,0,not_available,not_available,not_available,not_available,not_available,Turkey,Asia,Asia,not_available,not_available,none,not_available,3,0,https://pleiades.stoa.org/places/599905
349,pylos,21.659888,36.9520305,1,0,not_available,not_available,not_available,not_available,not_available,Greece,Achaia,Achaia,Achaia,Hellas,none,not_available,4,0,https://pleiades.stoa.org/places/570640
350,qalat_gabbar,38.42778611,35.90187778,0,0,not_available,not_available,not_available,not_available,not_available,Syria,Syria,Syria,not_available,not_available,none,not_available,4,1,not_available
351,qana,49.123406,14.534337,1,1,Indian_Ocean,not_available,not_available,not_available,Coastal_plain,Yemen,Barbaricum,Barbaricum,Barbaricum,Barbaricum,none,not_available,4,1,https://pleiades.stoa.org/places/39434
352,qara_keupru,37.229828,36.634563,0,0,not_available,not_available,not_available,not_available,not_available,Syria,Syria,Syria,not_available,not_available,none,not_available,4,1,not_available
353,qara_mazraa,37.394093,36.617843,0,0,not_available,not_available,not_available,not_available,not_available,Syria,Syria,Syria,not_available,not_available,none,not_available,4,1,not_available
354,qol_srouj,0,0,1,0,not_available,not_available,not_available,not_available,not_available,Syria,Syria,Syria,not_available,not_available,none,not_available,0,1,not_available
355,qusair_as-Saila,38.77012778,35.76938056,0,0,not_available,not_available,not_available,not_available,not_available,Syria,Syria,Syria,not_available,not_available,An Early Roman fort or settlement?,not_available,4,1,not_available
356,ramat_rahel,35.218992,31.739992,0,0,not_available,not_available,not_available,not_available,not_available,Israel,not_available,Iudaea,not_available,not_available,none,not_available,4,1,https://pleiades.stoa.org/places/671109966
357,rasm,0,0,1,0,not_available,not_available,not_available,not_available,not_available,Syria,Syria,Syria,not_available,not_available,none,not_available,0,1,not_available
358,rehovot-in-the-negev,34.565875,31.029675,0,0,not_available,not_available,not_available,not_available,not_available,Israel,Nabataean_Kingdom,Arabia,Palaestina,Palaistine_III,none,not_available,3,1,https://pleiades.stoa.org/places/687860
359,resafa,38.75759249,35.62899573,0,0,not_available,not_available,not_available,not_available,not_available,Syria,Syria,Syria,Augusta_Euphratensis,Euphratesia,none,not_available,3,0,https://pleiades.stoa.org/places/668354
362,sabratha,12.48430055,32.8053014,0,1,Africum_Mare,not_available,not_available,not_available,Coastal_plain,Libya,Africa_Proconsularis,Africa_Proconsularis,Tripolitana,not_available,none,35_E2,2,0,https://pleiades.stoa.org/places/344282
363,salamis/constantia,33.9030525,35.1799505,0,1,not_available,not_available,not_available,not_available,not_available,Cyprus,Cyprus,Cyprus,Cyprus,Kypros,"The administrative capital during the second-third centuries AD, renamed Constantia during the mid-fourth century AD (after the earthquake of AD 365?, AD 345 mentioned by M. Yon) and became the provincial capital and seat of the metropolitan.",72_D2,2,0,https://pleiades.stoa.org/places/707617
364,samaria-sebaste,35.190436,32.276529,0,0,not_available,not_available,not_available,not_available,not_available,Israel,not_available,Iudaea,Palaestina,not_available,none,69_B5,3,0,https://pleiades.stoa.org/places/678370
365,samos_(heraion),26.88619722,37.67220833,0,0,not_available,not_available,not_available,not_available,not_available,Greece,Asia,Asia,Asia,Asia,none,61_D2,3,0,https://pleiades.stoa.org/places/599641
366,samosata,38.530357,37.525756,0,0,not_available,not_available,not_available,not_available,not_available,Turkey,Syria,Syria,Augusta_Euphratensis,Euphratesia,none,67_H1,2,0,https://pleiades.stoa.org/places/658587
367,samothrace-hieron,25.53004955,40.50370085,0,0,not_available,not_available,not_available,not_available,not_available,Greece,not_available,Thracia,Makedonia,Makedonia_I,none,51_F3,3,0,https://pleiades.stoa.org/places/501596
368,sardis,28.040286,38.488314,0,0,not_available,not_available,not_available,not_available,not_available,Turkey,not_available,Asia,not_available,not_available,Destroyed by earthquake in AD 17.,56_G5,2,0,https://pleiades.stoa.org/places/550867
369,scythopolis,35.502531,32.501706,0,0,not_available,not_available,not_available,not_available,not_available,Israel,not_available,Iudaea,not_available,Palaistine_II,none,69_C4,2,0,https://pleiades.stoa.org/places/678378
370,seleukeia_ad_tigrim,44.523773,33.097898,0,0,not_available,Tigris,Navigable,not_available,not_available,Iraq,Barbaricum,Barbaricum,Barbaricum,Barbaricum,none,not_available,2,0,https://pleiades.stoa.org/places/894084
371,serbal,33.645944,28.650264,1,0,not_available,not_available,not_available,not_available,Mountainous,Egypt,not_available,Arabia,Arabia,Palaistine_III,none,not_available,4,0,https://pleiades.stoa.org/places/746752
486,shabwa,47.02493,15.37119,0,0,not_available,not_available,not_available,not_available,not_available,Yemen,Barbaricum,Barbaricum,Barbaricum,Barbaricum,none,not_available,4,1,https://pleiades.stoa.org/places/39418
372,shaqif_ed-deir,0,0,1,0,not_available,not_available,not_available,not_available,Mountainous,Israel,not_available,Arabia,not_available,Palaistine_III,none,not_available,0,1,not_available
373,sigilliya,0,0,1,0,not_available,not_available,not_available,not_available,Mountainous,Israel,not_available,Arabia,not_available,Palaistine_III,none,not_available,0,1,not_available
374,siphnos,24.74288889,36.97486111,0,0,not_available,not_available,not_available,not_available,not_available,Greece,Achaia,Achaia,Achaia,not_available,No specific location on the island is mentioned.,not_available,4,1,https://pleiades.stoa.org/places/590049
378,smyrna,27.13891111,38.41863056,0,1,Aegean_Sea,not_available,not_available,not_available,not_available,Turkey,Asia,Asia,Asia,Asia,none,56_E5,2,0,https://pleiades.stoa.org/places/550771
379,sountha_saneh,36.850525,32.69179167,0,0,not_available,not_available,not_available,not_available,not_available,Syria,not_available,Arabia,not_available,not_available,none,not_available,4,0,https://pleiades.stoa.org/places/678398
380,soura,38.77952319,35.89739925,0,0,not_available,not_available,not_available,not_available,not_available,Syria,Syria,Syria,not_available,not_available,none,not_available,4,0,https://pleiades.stoa.org/places/668376
391,southwest_crete_survey,23.66372222,35.25091389,0,0,not_available,not_available,not_available,not_available,Coastal_plain,Greece,Creta,Cyrene_et_Creta,Creta,Krete,"Although designated as a coastal plain, the fact that the sea level has dropped considerably since Antiquity, this site may have been located much nearer to the seaside, even more so for this site than for site B.6.",not_available,0,1,not_available
385,sparta,22.42434167,37.08242778,0,0,not_available,not_available,not_available,not_available,Mountainous,Greece,Achaia,Achaia,Achaia,Hellas,none,58_C3,2,0,https://pleiades.stoa.org/places/570685
387,stobi,21.975475,41.55244167,0,0,Aegean_Sea,Erigon_and_Axius,not_available,Via_Egnatia,River_bank,Macedonia,Makedonia,Makedonia,Makedonia,Makedonia_II,"Municipium, possessed the Ius Italicum, part of the short-lived province of Macedonia Salutaris (probably its capital), capital of Macedonia Secunda in the fifth and sixth centuries.",50_A1,3,0,https://pleiades.stoa.org/places/491731
388,sufsufa,33.921682,28.58771,1,0,not_available,not_available,not_available,not_available,Mountainous,Egypt,not_available,Arabia,Arabia,Palaistine_III,none,not_available,4,0,https://pleiades.stoa.org/places/746745
389,sultantepe,38.906354,37.049977,0,0,not_available,not_available,not_available,not_available,not_available,Turkey,not_available,Mesopotamia,Osrhoene,Osroene,none,not_available,4,1,not_available
390,sumhuram,54.434,17.03874,0,1,not_available,not_available,not_available,not_available,not_available,Oman,Barbaricum,Barbaricum,Barbaricum,Barbaricum,"The ancient name for the site of Khor Rori, it is probably also to be equated with Moscha Limen, a harbour mentioned in the Periplus of the Erythraean Sea (Peacock & Blue (eds.) 2007, p. 139).",not_available,4,1,https://pleiades.stoa.org/places/39264
397,sykea,22.204009,38.66372,1,0,not_available,not_available,not_available,not_available,not_available,Greece,Achaia,Achaia,Achaia,Hellas,none,not_available,4,0,https://pleiades.stoa.org/places/541000
398,Tall _eh_hamad/magdala,40.74034722,35.64338889,0,0,not_available,not_available,not_available,not_available,not_available,Syria,not_available,Mesopotamia,not_available,not_available,none,not_available,4,0,https://pleiades.stoa.org/places/893991
399,tanagra_survey,23.58524444,38.308025,0,0,Gulf_of_Euboia,Asopos,Non-navigable,not_available,not_available,Greece,Achaia,Achaia,Achaia,Hellas,none,59_B1,3,0,https://pleiades.stoa.org/places/580114
409,tarsos,34.898228,36.914956,0,0,not_available,not_available,not_available,not_available,not_available,Turkey,Kilikia,Kilikia,Kilikia,Kilikia_II,none,66_F3,2,0,https://pleiades.stoa.org/places/648789
410,taucheira,20.56729767,32.53639933,0,1,not_available,not_available,not_available,not_available,not_available,Libya,Cyrenaica,Cyrene_et_Creta,Libya_Superior,Libye_he_Ano,none,38_B1,3,0,https://pleiades.stoa.org/places/373736
411,tel_anafa,35.64503889,33.176975,0,0,not_available,not_available,not_available,not_available,not_available,Israel,Syria,Syria,not_available,not_available,none,not_available,4,0,https://pleiades.stoa.org/places/678410
413,tel_mevorakh,34.92711,32.53325,0,0,not_available,not_available,not_available,not_available,not_available,Israel,not_available,Iudaea,not_available,not_available,none,not_available,4,0,https://pleiades.stoa.org/places/678417
414,tell_aajar,36.995161,36.479663,0,0,not_available,not_available,not_available,not_available,not_available,Syria,Syria,Syria,not_available,not_available,none,not_available,4,1,not_available
415,tell_aar,37.436624,36.617858,0,0,not_available,not_available,not_available,not_available,not_available,Syria,Syria,Syria,not_available,not_available,none,not_available,4,1,not_available
416,tell_aarane,37.273025,36.09184,0,0,not_available,not_available,not_available,not_available,not_available,Syria,Syria,Syria,not_available,not_available,none,not_available,4,1,not_available
417,tell_akhtareine,0,0,1,0,not_available,not_available,not_available,not_available,not_available,Syria,Syria,Syria,not_available,not_available,none,not_available,0,1,not_available
418,tell_archaq,0,0,1,0,not_available,not_available,not_available,not_available,not_available,Syria,Syria,Syria,not_available,not_available,none,not_available,0,1,not_available
419,tell_ares,0,0,1,0,not_available,not_available,not_available,not_available,not_available,Syria,Syria,Syria,not_available,not_available,none,not_available,0,1,not_available
478,tell_atrib,31.18425,30.4707015,0,0,not_available,not_available,not_available,not_available,not_available,Egypt,not_available,Aegyptus,not_available,not_available,none,74_E4,3,0,https://pleiades.stoa.org/places/727078
420,tell_bahouerte,37.332088,36.508491,0,0,not_available,not_available,not_available,not_available,not_available,Syria,Syria,Syria,not_available,not_available,none,not_available,4,1,not_available
421,tell_banat,38.295515,36.428108,0,0,not_available,not_available,not_available,not_available,not_available,Syria,Syria,Syria,not_available,not_available,none,not_available,4,1,not_available
422,tell_bararhite,38.059941,35.043661,0,0,not_available,not_available,not_available,not_available,not_available,Syria,Syria,Syria,not_available,not_available,none,not_available,4,1,not_available
423,tell_berne_(west),36.916991,36.041613,0,0,not_available,not_available,not_available,not_available,not_available,Syria,Syria,Syria,not_available,not_available,none,not_available,4,1,not_available
424,tell_botnan,37.53822,36.383528,1,0,not_available,not_available,not_available,not_available,not_available,Syria,Syria,Syria,not_available,not_available,none,not_available,4,0,https://pleiades.stoa.org/places/658406
425,tell_bouhaira,0,0,1,0,not_available,not_available,not_available,not_available,not_available,Syria,Syria,Syria,not_available,not_available,none,not_available,0,1,not_available
426,tell_el_jijane,0,0,1,0,not_available,not_available,not_available,not_available,not_available,Syria,Syria,Syria,not_available,not_available,none,not_available,0,1,not_available
427,tell_el_qoubli,37.02526,36.135809,0,0,not_available,not_available,not_available,not_available,not_available,Syria,Syria,Syria,not_available,not_available,none,not_available,4,1,not_available
428,tell_fafine,37.247048,36.317116,0,0,not_available,not_available,not_available,not_available,not_available,Syria,Syria,Syria,not_available,not_available,none,not_available,4,1,not_available
429,tell_fakhariyah,40.07011944,36.84188333,0,0,not_available,not_available,not_available,not_available,not_available,Syria,not_available,Mesopotamia,Osrhoene,Osroene,none,not_available,3,0,https://pleiades.stoa.org/places/874662
430,tell_hailane,0,0,1,0,not_available,not_available,not_available,not_available,not_available,Syria,Syria,Syria,not_available,not_available,none,not_available,0,1,not_available
431,tell_haourane,35.96168,32.977443,0,0,not_available,not_available,not_available,not_available,not_available,Syria,Syria,Syria,not_available,not_available,none,not_available,4,1,not_available
432,tell_ilbol,0,0,1,0,not_available,not_available,not_available,not_available,not_available,Syria,Syria,Syria,not_available,not_available,none,not_available,0,1,not_available
433,tell_jaadiyeh,0,0,1,0,not_available,not_available,not_available,not_available,not_available,Syria,Syria,Syria,not_available,not_available,none,not_available,0,1,not_available
434,tell_kadrich,0,0,1,0,not_available,not_available,not_available,not_available,not_available,Syria,Syria,Syria,not_available,not_available,none,not_available,0,1,not_available
435,tell_kaffine,36.993448,36.42709,0,0,not_available,not_available,not_available,not_available,not_available,Syria,Syria,Syria,not_available,not_available,none,not_available,4,1,not_available
436,tell_kassiha,37.165129,36.417626,0,0,not_available,not_available,not_available,not_available,not_available,Syria,Syria,Syria,not_available,not_available,none,not_available,4,1,not_available
437,tell_keisan,35.15093,32.872851,0,0,not_available,not_available,not_available,not_available,not_available,Israel,Syria,Syria,not_available,not_available,none,not_available,4,1,not_available
438,tell_khibi,0,0,1,0,not_available,not_available,not_available,not_available,not_available,Syria,Syria,Syria,not_available,not_available,none,not_available,0,1,not_available
439,tell_maksour,0,0,1,0,not_available,not_available,not_available,not_available,not_available,Syria,Syria,Syria,not_available,not_available,none,not_available,0,1,not_available
440,tell_mouslimiye,0,0,1,0,not_available,not_available,not_available,not_available,not_available,Syria,Syria,Syria,not_available,not_available,none,not_available,0,1,not_available
441,tell_nef,0,0,1,0,not_available,not_available,not_available,not_available,not_available,Syria,Syria,Syria,not_available,not_available,none,not_available,0,1,not_available
442,tell_noubbol,0,0,1,0,not_available,not_available,not_available,not_available,not_available,Syria,Syria,Syria,not_available,not_available,none,not_available,0,1,not_available
443,tell_qaramel,0,0,1,0,not_available,not_available,not_available,not_available,not_available,Syria,Syria,Syria,not_available,not_available,none,not_available,0,1,not_available
444,tell_rahhal,37.345687,36.310275,0,0,not_available,not_available,not_available,not_available,not_available,Syria,Syria,Syria,not_available,not_available,none,not_available,4,1,not_available
445,tell_rifaat,37.09506111,36.47165,0,0,not_available,not_available,not_available,not_available,not_available,Syria,Syria,Syria,not_available,not_available,none,not_available,4,1,not_available
446,tell_sidjaraz,0,0,1,0,not_available,not_available,not_available,not_available,not_available,Syria,Syria,Syria,not_available,not_available,none,not_available,0,1,not_available
447,tell_sourane,0,0,1,0,not_available,not_available,not_available,not_available,not_available,Syria,Syria,Syria,not_available,not_available,It seems as if this tell belongs to the territory or area of Aazaz?,not_available,0,1,not_available
448,tell_soussiane,0,0,1,0,not_available,not_available,not_available,not_available,not_available,Syria,Syria,Syria,not_available,not_available,none,not_available,0,1,not_available
449,tell_zaitane,0,0,1,0,not_available,not_available,not_available,not_available,not_available,Syria,Syria,Syria,not_available,not_available,none,not_available,0,1,not_available
450,tenos,25.15248333,37.59163333,0,0,Aegean_Sea,not_available,not_available,not_available,not_available,Greece,Achaia,Achaia,Achaia,not_available,none,not_available,4,0,https://pleiades.stoa.org/places/590073
451,thasos,24.71342778,40.77979167,0,1,Thracium/Macedonicum_Mare,not_available,not_available,not_available,not_available,Greece,Makedonia,Makedonia,Makedonia,Makedonia_I,none,51_D3,3,0,https://pleiades.stoa.org/places/501634
452,thespiae,23.15104444,38.29573889,0,0,not_available,not_available,not_available,not_available,not_available,Greece,Achaia,Achaia,Achaia,Hellas,none,55_E4,3,0,https://pleiades.stoa.org/places/541141
453,timna,45.793817,14.986325,0,0,not_available,not_available,not_available,not_available,not_available,Yemen,Barbaricum,Barbaricum,Barbaricum,Barbaricum,none,not_available,3,1,https://pleiades.stoa.org/places/39430
458,tolophon,22.301941,38.368366,0,0,not_available,not_available,not_available,not_available,not_available,Greece,Achaia,Achaia,Achaia,Hellas,none,not_available,4,0,https://pleiades.stoa.org/places/541154
459,tourhleu,0,0,1,0,not_available,not_available,not_available,not_available,not_available,Syria,Syria,Syria,not_available,not_available,none,not_available,0,1,not_available
461,umm_el-tlel,38.85764167,35.18467222,0,0,not_available,not_available,not_available,not_available,not_available,Syria,Syria,Syria,not_available,not_available,none,not_available,4,1,not_available
462,upper_zohar,35.24215833,31.23531667,0,0,not_available,not_available,not_available,not_available,Hilly,Israel,not_available,Iudaea,Palaestina,Palaistine_III,none,not_available,4,0,https://pleiades.stoa.org/places/688050
463,uruk,45.61715,31.318603,0,0,not_available,not_available,not_available,not_available,not_available,Iraq,Barbaricum,Barbaricum,Barbaricum,Barbaricum,none,not_available,3,1,https://pleiades.stoa.org/places/912986
464,veloukovo,22.17907222,38.53415833,0,0,not_available,not_available,not_available,not_available,Mountainous,Greece,Achaia,Achaia,Achaia,Hellas,none,not_available,4,1,not_available
4,vrokastro_survey,25.78200556,35.09750556,0,0,not_available,not_available,not_available,not_available,not_available,Greece,Creta,Cyrene_et_Creta,Creta,Krete,none,not_available,0,1,not_available
470,wadi_fraiya,0,0,1,0,not_available,not_available,not_available,not_available,Mountainous,Israel,not_available,Arabia,not_available,Palaistine_III,none,not_available,0,1,not_available
471,wadi_jibal,0,0,1,0,not_available,not_available,not_available,not_available,Mountainous,Israel,not_available,Arabia,not_available,Palaistine_III,none,not_available,0,1,not_available
473,xanthos,29.24324722,36.33875833,0,0,not_available,not_available,not_available,not_available,not_available,Turkey,not_available,Lykia_et_Pamphylia,Lycia_et_Pamphylia,Lykia,none,65_B5,3,0,not_available
474,yassi_ada_shipwreck,27.195937,36.991081,0,0,Aegean_Sea,not_available,not_available,not_available,not_available,Turkey,not_available,Asia,not_available,not_available,"Since a ship may well have its destination anywhere, this should be seen as isolated from the material excavated at sites, and therefore the material identified is not 'attached' to a region.",not_available,0,1,not_available
475,yel_baba,0,0,1,0,not_available,not_available,not_available,not_available,not_available,Syria,Syria,Syria,not_available,not_available,none,not_available,0,1,not_available
476,zeugma,37.87026944,37.05734444,0,0,not_available,Euphrates,Navigable,not_available,River_bank,Turkey,Syria,Syria,not_available,not_available,"Destroyed in 256 AD, base of Legio X Fretensis and Legio III Scythica",67_F2,3,0,https://pleiades.stoa.org/places/658636